City_ID,City,Lat,Lng,Max Temp,Humidity,Cloudiness,Wind Speed,Country,Date
0,nhulunbuy,-12.23,136.77,89.6,62,100,13.8,AU,1615093226
1,busselton,-33.65,115.33,79.75,50,17,2.64,AU,1615093227
2,port elizabeth,-33.92,25.57,66.2,88,20,17.27,ZA,1615093177
3,sorong,-0.88,131.25,78.89,81,100,9.57,ID,1615093229
4,cabo san lucas,22.89,-109.91,66.2,63,20,8.52,MX,1615093141
5,atuona,-9.8,-139.03,79.59,74,58,13.56,PF,1615093230
6,lorengau,-2.02,147.27,84.27,71,10,5.75,PG,1615093167
7,luderitz,-26.65,15.16,66.47,56,0,12.59,NA,1615093232
8,kahului,20.89,-156.47,73.4,68,40,16.11,US,1615093194
9,arraial do cabo,-22.97,-42.03,74.84,88,100,7.25,BR,1615093233
10,butaritari,3.07,172.79,80.76,79,29,14.29,KI,1615093145
11,chernyshevskiy,63.01,112.47,15.8,97,100,5.68,RU,1615093225
12,albany,42.6,-73.97,23.0,85,2,4.83,US,1615093235
13,nome,64.5,-165.41,17.01,92,90,21.85,US,1615093236
14,rio brilhante,-21.8,-54.55,67.14,93,0,2.82,BR,1615093237
15,hokitika,-42.72,170.97,58.98,77,3,20.67,NZ,1615093238
16,cape town,-33.93,18.42,66.99,88,75,5.75,ZA,1615093239
17,vila franca do campo,37.72,-25.43,60.8,94,75,17.27,PT,1615093240
18,nivala,63.92,24.97,19.0,88,100,5.01,FI,1615093241
19,carnarvon,-24.87,113.63,84.2,79,0,14.97,AU,1615093156
20,wanning,18.8,110.4,80.15,73,44,7.36,CN,1615093242
21,requena,39.49,-1.1,53.6,94,75,2.3,ES,1615093243
22,hidalgo,20.5,-99.0,50.79,81,77,4.9,MX,1615093244
23,bredasdorp,-34.53,20.04,64.4,72,2,6.91,ZA,1615093151
24,barrow,71.29,-156.79,-9.4,70,1,13.8,US,1615093207
25,cuamba,-14.8,36.54,70.0,95,60,2.89,MZ,1615093246
26,eyl,7.98,49.82,76.82,70,20,14.54,SO,1615093247
27,anadyr,64.75,177.48,-18.0,69,0,4.47,RU,1615093248
28,hobart,-42.88,147.33,71.01,59,75,13.8,AU,1615093248
29,rikitea,-23.12,-134.97,80.06,81,89,16.08,PF,1615093144
30,hermanus,-34.42,19.23,63.0,91,19,5.21,ZA,1615093249
31,sisimiut,66.94,-53.67,14.7,93,93,13.31,GL,1615093250
32,kamaishi,39.27,141.88,39.2,38,40,2.3,JP,1615093250
33,hilo,19.73,-155.09,73.4,73,75,6.91,US,1615093139
34,la ronge,55.1,-105.28,35.6,75,100,1.14,CA,1615093252
35,khatanga,71.97,102.5,-14.78,88,59,12.03,RU,1615093168
36,new norfolk,-42.78,147.06,71.01,42,100,1.01,AU,1615093254
37,mackay,-21.15,149.2,84.2,65,75,14.97,AU,1615093254
38,thai nguyen,21.59,105.84,73.4,60,75,10.36,VN,1615093255
39,sakakah,29.97,40.21,48.2,43,0,3.96,SA,1615093215
40,kapaa,22.08,-159.32,71.6,78,90,20.71,US,1615093257
41,celestun,20.87,-90.4,73.13,79,15,13.82,MX,1615093258
42,east london,-33.02,27.91,69.85,73,84,17.4,ZA,1615093258
43,sao filipe,14.9,-24.5,70.47,77,26,14.99,CV,1615093259
44,santa maria,-29.68,-53.81,59.29,90,0,4.92,BR,1615093001
45,okha,53.57,142.95,0.03,86,4,16.64,RU,1615093260
46,woodward,36.43,-99.39,48.2,61,1,16.11,US,1615093261
47,ponta do sol,32.67,-17.1,55.99,63,6,1.01,PT,1615093261
48,vaini,-21.2,-175.2,86.0,70,75,13.8,TO,1615093193
49,severo-kurilsk,50.68,156.12,15.53,88,100,33.02,RU,1615093181
50,avarua,-21.21,-159.78,80.6,89,75,2.3,CK,1615093263
51,cabedelo,-6.98,-34.83,75.2,100,40,8.95,BR,1615093104
52,rasht,37.28,49.58,48.2,93,40,4.61,IR,1615093265
53,gat,31.61,34.76,46.99,100,0,3.74,IL,1615093265
54,mangrol,21.12,70.12,81.93,56,0,8.25,IN,1615093266
55,hornepayne,49.21,-84.77,-5.49,92,0,3.13,CA,1615093266
56,ranong,9.97,98.63,87.8,62,75,6.91,TH,1615093267
57,meulaboh,4.14,96.13,86.0,64,100,1.36,ID,1615093267
58,bethel,41.37,-73.41,24.8,54,90,3.18,US,1615093170
59,sabang,5.89,95.32,82.54,72,100,8.57,ID,1615093269
60,nanakuli,21.39,-158.15,75.2,60,1,13.8,US,1615093269
61,lagoa,39.05,-27.98,60.03,95,58,17.07,PT,1615093270
62,nieuwpoort,51.12,2.77,30.2,93,0,3.44,BE,1615093270
63,tsiroanomandidy,-18.77,46.03,69.94,86,86,1.25,MG,1615093271
64,ushuaia,-54.8,-68.3,48.2,40,20,12.66,AR,1615092981
65,fare,-16.7,-151.02,83.41,70,99,11.41,PF,1615093273
66,corinto,37.94,22.96,55.99,61,71,4.0,GR,1615093274
67,punta arenas,-53.15,-70.92,46.4,66,20,11.5,CL,1615093275
68,port macquarie,-31.43,152.92,79.0,62,53,1.99,AU,1615093275
69,georgetown,5.41,100.34,88.0,66,20,5.75,MY,1615093276
70,thompson,55.74,-97.86,39.2,60,75,8.05,CA,1615093277
71,port alfred,-33.59,26.89,69.01,88,79,5.99,ZA,1615093143
72,solnechnyy,50.72,136.63,8.71,89,96,5.14,RU,1615093279
73,poreba,50.49,19.34,32.0,64,90,11.5,PL,1615093279
74,varkkallai,8.73,76.71,89.6,58,20,4.61,IN,1615093280
75,severo-yeniseyskiy,60.37,93.04,18.73,94,99,16.11,RU,1615093280
76,provideniya,64.38,-173.3,2.39,91,100,7.07,RU,1615093281
77,cidreira,-30.18,-50.21,66.94,73,0,2.37,BR,1615093281
78,taseyevo,57.22,94.9,29.89,94,98,16.28,RU,1615093282
79,dikson,73.51,80.55,-18.62,88,100,13.89,RU,1615093160
80,avera,33.19,-82.53,37.4,100,1,5.06,US,1615093283
81,qaanaaq,77.48,-69.36,-15.77,66,0,5.59,GL,1615093180
82,pevek,69.7,170.31,-22.86,82,76,11.88,RU,1615093139
83,maroantsetra,-15.43,49.73,79.29,76,98,5.08,MG,1615093285
84,mahebourg,-20.41,57.7,78.8,94,75,11.5,MU,1615093285
85,key west,24.56,-81.78,73.4,88,90,6.91,US,1615093091
86,mar del plata,-38.0,-57.56,64.0,88,0,3.44,AR,1615092990
87,lebu,-37.62,-73.65,57.79,94,14,5.79,CL,1615093289
88,geraldton,-28.77,114.6,93.2,31,0,17.27,AU,1615093289
89,kuito,-12.38,16.93,56.82,90,73,2.75,AO,1615093290
90,bluff,-46.6,168.33,51.01,80,82,21.0,NZ,1615093198
91,broome,42.25,-75.83,19.99,73,75,8.05,US,1615093291
92,axim,4.87,-2.24,79.16,88,99,7.09,GH,1615093291
93,saint-philippe,-21.36,55.77,80.6,89,75,21.85,RE,1615093155
94,inta,66.03,60.17,-12.82,89,86,1.77,RU,1615093293
95,ust-nera,64.57,143.2,-19.66,77,100,7.09,RU,1615093293
96,belaya gora,68.53,146.42,-13.11,87,100,17.05,RU,1615093294
97,polunochnoye,60.87,60.42,0.12,90,32,2.86,RU,1615093156
98,adrar,20.5,-10.07,63.07,30,59,18.23,MR,1615093295
99,puerto ayora,-0.74,-90.35,75.0,98,41,1.01,EC,1615093150
100,beira,-19.84,34.84,75.2,94,20,4.92,MZ,1615093296
101,orange,33.7,-117.77,57.2,77,75,4.61,US,1615093000
102,kaeo,-35.1,173.78,72.0,55,18,14.0,NZ,1615093158
103,sibolga,1.74,98.78,76.33,88,99,5.3,ID,1615093298
104,hobyo,5.35,48.53,79.45,69,37,19.48,SO,1615093299
105,clyde river,70.47,-68.59,-22.0,69,1,5.75,CA,1615093192
106,beian,63.66,9.57,33.8,75,75,34.52,NO,1615093300
107,airai,-8.93,125.41,73.02,83,35,1.92,TL,1615093150
108,chuy,-33.7,-53.46,65.17,81,32,1.21,UY,1615093174
109,beloha,-25.17,45.05,76.46,65,4,7.83,MG,1615093301
110,esperance,-33.87,121.9,71.6,73,90,9.22,AU,1615093302
111,batouri,4.43,14.37,61.29,80,53,3.69,CM,1615093303
112,lumajang,-8.13,113.22,85.5,66,79,3.76,ID,1615093303
113,puerto cabezas,14.04,-83.39,73.44,82,0,8.48,NI,1615093304
114,tilichiki,60.47,166.1,-14.15,85,100,15.99,RU,1615093305
115,tupik,54.43,119.93,14.59,89,34,3.44,RU,1615093306
116,constitucion,-35.33,-72.42,59.5,81,20,5.19,CL,1615093307
117,ucluelet,48.93,-125.55,46.0,82,100,7.0,CA,1615093307
118,hasaki,35.73,140.83,50.0,57,75,12.66,JP,1615093308
119,manakara,-22.13,48.02,77.61,82,26,10.02,MG,1615093308
120,mataura,-46.19,168.86,52.0,77,71,15.01,NZ,1615093309
121,bratsk,56.13,101.61,32.0,40,100,8.95,RU,1615093169
122,huambo,-12.78,15.74,57.52,93,97,3.67,AO,1615093310
123,pimenta bueno,-11.67,-61.19,73.71,93,85,1.68,BR,1615093311
124,jamestown,42.1,-79.24,19.99,94,1,5.19,US,1615093013
125,ketchikan,55.34,-131.65,39.2,75,90,8.37,US,1615093260
126,ribeira grande,38.52,-28.7,61.75,92,94,12.35,PT,1615093313
127,touros,-5.2,-35.46,75.2,94,40,3.44,BR,1615093313
128,iqaluit,63.75,-68.51,-7.6,77,90,23.02,CA,1615093262
129,longyearbyen,78.22,15.64,-0.4,78,20,14.97,SJ,1615093314
130,hofn,64.25,-15.21,38.35,70,91,6.04,IS,1615093315
131,shingu,33.73,135.98,55.4,58,75,8.05,JP,1615093315
132,irmo,34.09,-81.18,37.4,75,1,3.44,US,1615093316
133,fort nelson,58.81,-122.7,23.0,80,40,3.44,CA,1615093316
134,hay river,60.82,-115.8,10.4,92,89,2.3,CA,1615093317
135,gua musang,4.88,101.96,91.09,42,87,2.89,MY,1615093318
136,ponta delgada,37.73,-25.67,60.8,94,75,17.27,PT,1615093319
137,zhezkazgan,47.8,67.71,24.51,96,86,7.74,KZ,1615093319
138,pasighat,28.07,95.33,80.08,33,70,2.06,IN,1615093320
139,lake havasu city,34.48,-114.32,71.6,13,20,4.61,US,1615093321
140,maposeni,-10.58,35.4,68.0,100,75,3.44,TZ,1615093322
141,erzin,36.96,36.2,53.01,86,33,0.54,TR,1615093322
142,moshkovo,55.31,83.61,21.0,67,0,15.66,RU,1615093323
143,haines junction,60.75,-137.51,23.0,46,100,5.75,CA,1615093323
144,pacific grove,36.62,-121.92,51.8,71,1,6.91,US,1615093033
145,karmaskaly,54.37,56.18,1.4,92,40,6.71,RU,1615093325
146,faanui,-16.48,-151.75,83.21,69,100,11.81,PF,1615093325
147,nouadhibou,20.93,-17.03,62.17,75,0,25.41,MR,1615093274
148,san antonio,29.42,-98.49,57.0,58,1,3.44,US,1615093286
149,dingle,11.0,122.67,85.26,60,95,15.1,PH,1615093327
150,pangoa,-12.12,-73.0,67.73,96,79,1.07,PE,1615093327
151,saint-joseph,-21.37,55.62,80.6,89,75,21.85,RE,1615093231
152,sur,22.57,59.53,78.67,60,0,13.33,OM,1615093328
153,antalaha,-14.9,50.28,77.76,73,95,3.44,MG,1615093240
154,saskylakh,71.92,114.08,-19.79,86,96,6.8,RU,1615093330
155,chokurdakh,70.63,147.92,-14.01,88,100,14.23,RU,1615093139
156,bambous virieux,-20.34,57.76,80.01,94,75,11.5,MU,1615093270
157,dicabisagan,17.08,122.42,81.99,60,64,5.91,PH,1615093332
158,pyatnitskoye,50.42,37.83,25.3,88,78,13.69,RU,1615093333
159,paamiut,61.99,-49.67,31.68,99,100,7.27,GL,1615093333
160,nichinan,31.6,131.37,51.8,76,75,8.05,JP,1615093334
161,xichang,27.9,102.26,50.94,69,98,3.0,CN,1615093335
162,placido de castro,-10.34,-67.19,72.93,97,99,1.12,BR,1615093335
163,westport,41.14,-73.36,28.4,46,90,4.61,US,1615093336
164,te anau,-45.42,167.72,53.73,48,12,8.77,NZ,1615093261
165,necochea,-38.55,-58.74,63.0,72,2,10.0,AR,1615093337
166,sorland,67.67,12.69,36.5,77,81,29.48,NO,1615093221
167,yellowknife,62.46,-114.35,12.2,85,90,10.36,CA,1615093211
168,fuerte olimpo,-21.04,-57.87,72.25,77,0,2.73,PY,1615093338
169,portland,45.52,-122.68,46.4,66,1,4.61,US,1615092750
170,castro,-24.79,-50.01,60.31,97,14,3.83,BR,1615093099
171,asau,46.43,26.4,26.01,55,0,5.53,RO,1615093340
172,bathsheba,13.22,-59.52,77.0,73,40,21.85,BB,1615093341
173,verkhnechusovskiye gorodki,58.17,57.11,-11.2,77,40,2.24,RU,1615093341
174,santa rosa,14.31,121.11,89.6,51,20,9.22,PH,1615093284
175,pozo colorado,-23.49,-58.8,71.58,67,0,2.77,PY,1615093342
176,berdigestyakh,62.1,126.7,1.11,91,90,4.09,RU,1615093343
177,beringovskiy,63.05,179.32,-10.66,90,100,9.15,RU,1615093343
178,mayo,38.89,-76.51,35.6,55,1,5.75,US,1615093152
179,turkan,40.36,50.22,50.0,71,0,32.21,AZ,1615093345
180,shipitsyno,61.28,46.52,-1.93,92,56,6.24,RU,1615093346
181,inuvik,68.35,-133.72,-4.0,77,100,11.5,CA,1615093347
182,sambava,-14.27,50.17,79.09,64,100,3.22,MG,1615093225
183,rio gallegos,-51.62,-69.22,48.2,61,0,5.75,AR,1615093193
184,saryg-sep,51.5,95.6,24.15,92,79,1.54,RU,1615093348
185,honiara,-9.43,159.95,81.54,77,100,2.86,SB,1615093349
186,kodiak,57.79,-152.41,30.2,37,1,18.41,US,1615093156
187,colesberg,-30.72,25.1,60.22,55,0,0.36,ZA,1615093350
188,black river,18.03,-77.85,75.2,83,40,4.61,JM,1615093350
189,roald,62.58,6.13,34.0,59,40,13.8,NO,1615093351
190,anchorage,61.22,-149.9,24.8,74,20,1.01,US,1615093201
191,masindi,1.67,31.72,70.27,70,55,2.42,UG,1615093352
192,villa san giovanni,38.23,15.64,55.0,62,20,2.3,IT,1615093354
193,galbshtadt,53.23,78.98,19.74,93,100,3.2,RU,1615093356
194,banikoara,11.3,2.44,75.25,20,38,3.13,BJ,1615093356
195,ahualulco,22.4,-101.17,48.2,57,1,10.36,MX,1615093357
196,zhanaozen,43.3,52.8,41.29,82,100,16.55,KZ,1615093357
197,omboue,-1.57,9.26,76.89,76,97,6.02,GA,1615093358
198,tiksi,71.69,128.87,-15.74,86,100,8.77,RU,1615093155
199,pangnirtung,66.15,-65.71,-2.79,84,97,2.19,CA,1615093359
200,tasiilaq,65.61,-37.64,28.4,86,90,23.02,GL,1615093194
201,zvishavane,-20.33,30.07,63.12,90,0,0.94,ZW,1615093361
202,tiarei,-17.53,-149.33,82.4,74,40,6.91,PF,1615093361
203,flin flon,54.77,-101.86,32.2,98,100,4.76,CA,1615093210
204,cape coast,5.11,-1.25,79.2,88,94,10.33,GH,1615093362
205,hithadhoo,-0.6,73.08,83.79,77,61,11.12,MV,1615093194
206,ahipara,-35.17,173.17,67.35,63,1,16.02,NZ,1615093188
207,elizabeth city,36.29,-76.25,39.2,75,1,4.61,US,1615093282
208,grand gaube,-20.01,57.66,80.01,84,100,5.99,MU,1615093364
209,kruisfontein,-34.0,24.73,66.99,80,1,1.01,ZA,1615093365
210,kushmurun,52.45,64.63,27.82,98,100,15.7,KZ,1615093365
211,salalah,17.02,54.09,75.2,64,0,1.14,OM,1615093221
212,puerto escondido,15.85,-97.07,76.89,69,0,6.11,MX,1615093137
213,egvekinot,66.32,-179.17,-27.54,87,30,1.81,RU,1615093191
214,najran,17.49,44.13,55.4,44,27,4.97,SA,1615093324
215,storforshei,66.4,14.52,8.67,84,28,1.32,NO,1615093369
216,fomboni,-12.28,43.74,83.37,72,90,10.74,KM,1615093314
217,upernavik,72.79,-56.15,-11.43,88,100,10.96,GL,1615093370
218,quatre cocos,-20.21,57.76,80.01,94,75,11.5,MU,1615093370
219,taoudenni,22.68,-3.98,65.7,36,0,9.48,ML,1615093261
220,igarka,67.47,86.58,8.8,94,100,5.28,RU,1615093374
221,santa isabel,-23.32,-46.22,68.0,100,75,4.61,BR,1615093375
222,kandri,21.42,79.27,87.8,20,0,3.44,IN,1615093376
223,lazarev,52.22,141.51,9.64,86,0,6.82,RU,1615093376
224,santa cruz,-17.8,-63.17,73.4,94,40,2.3,BO,1615093377
225,dubinino,55.62,89.09,25.63,92,76,18.5,RU,1615093378
226,christchurch,-43.53,172.63,62.6,55,75,10.36,NZ,1615093202
227,semporna,4.48,118.61,86.0,70,20,8.05,MY,1615093379
228,tarasovskiy,48.73,40.36,26.42,92,0,11.07,RU,1615093380
229,catamarca,-28.47,-65.79,78.01,76,1,5.99,AR,1615093252
230,nikolskoye,59.7,30.79,21.2,79,75,13.42,RU,1615093381
231,swan river,52.11,-101.27,44.6,61,99,4.61,CA,1615093318
232,merauke,-8.47,140.33,85.87,66,66,9.64,ID,1615093382
233,fallon,39.47,-118.78,37.4,41,1,9.22,US,1615093383
234,tura,25.52,90.22,84.13,34,0,4.54,IN,1615093384
235,sinegorye,62.08,150.48,-6.9,82,97,3.2,RU,1615093384
236,nanning,22.82,108.32,68.0,60,0,2.24,CN,1615093385
237,taltal,-25.4,-70.48,66.49,79,28,0.81,CL,1615093271
238,kyren,51.68,102.14,33.06,82,42,1.43,RU,1615093386
239,mehamn,71.04,27.85,26.11,89,26,18.9,NO,1615093387
240,bykovo,55.64,38.08,19.99,86,75,13.42,RU,1615093388
241,kazuno,40.18,140.79,33.8,60,40,11.5,JP,1615093388
242,panjab,34.39,67.02,29.05,94,90,3.98,AF,1615093389
243,jiuquan,39.74,98.52,51.21,37,0,6.4,CN,1615093193
244,vestmannaeyjar,63.44,-20.27,39.54,74,6,11.52,IS,1615093390
245,gushikawa,26.35,127.87,69.8,94,75,17.27,JP,1615093284
246,hamilton,39.18,-84.53,34.0,80,1,2.89,US,1615093296
247,ondjiva,-17.07,15.73,66.85,57,32,5.35,AO,1615093392
248,bahia blanca,-38.72,-62.27,79.12,28,29,12.93,AR,1615093213
249,bama,11.52,13.69,64.89,37,0,4.27,NG,1615093393
250,dergachi,51.23,48.77,14.7,95,86,5.77,RU,1615093394
251,komsomolskiy,40.43,71.72,48.2,53,75,4.61,UZ,1615093292
252,kainantu,-6.29,145.87,70.38,85,97,0.16,PG,1615093395
253,karratha,-20.74,116.85,90.7,51,4,14.72,AU,1615093395
254,tual,-5.67,132.75,82.31,77,88,18.1,ID,1615093396
255,praia da vitoria,38.73,-27.07,60.8,94,40,14.07,PT,1615093397
256,dilla,6.41,38.31,69.35,34,31,0.98,ET,1615093397
257,san patricio,28.02,-97.52,53.6,76,1,5.75,US,1615093398
258,buchanan,5.88,-10.05,77.97,89,99,4.94,LR,1615093314
259,camargo,27.67,-105.17,57.4,37,0,10.36,MX,1615093399
260,lenger,42.18,69.88,39.2,93,75,2.24,KZ,1615093400
261,nizhniy kuranakh,58.84,125.49,14.25,94,100,7.67,RU,1615093400
262,along,28.17,94.77,78.67,37,44,0.49,IN,1615093401
263,tuktoyaktuk,69.45,-133.04,-14.8,76,75,12.66,CA,1615093192
264,hue,16.47,107.6,80.6,78,75,5.75,VN,1615093299
265,samoded,63.61,40.51,3.47,94,100,9.95,RU,1615093406
266,krasnoselkup,65.7,82.47,4.35,94,97,10.54,RU,1615093407
267,namibe,-15.2,12.15,74.64,88,40,6.42,AO,1615093407
268,shenzhen,22.55,114.07,72.0,99,79,3.89,CN,1615093408
269,ancud,-41.87,-73.82,57.99,100,90,4.61,CL,1615093283
270,naze,28.37,129.48,68.0,77,75,3.44,JP,1615093199
271,svetlogorsk,52.63,29.73,28.9,92,98,18.34,BY,1615093410
272,yalvac,38.3,31.18,38.53,88,61,2.84,TR,1615093278
273,torbay,47.67,-52.73,30.0,74,75,12.66,CA,1615093244
274,cherskiy,68.75,161.3,-10.34,88,100,7.7,RU,1615093259
275,lompoc,34.64,-120.46,51.8,82,40,9.22,US,1615093237
276,mapiripan,2.89,-72.13,75.34,86,100,3.42,CO,1615093412
277,ndago,-4.6,34.35,64.0,91,100,2.17,TZ,1615093413
278,ngunguru,-35.62,174.5,70.0,58,9,15.99,NZ,1615093413
279,san rafael del sur,11.85,-86.44,77.0,69,20,6.91,NI,1615093414
280,le port,-20.94,55.29,82.4,83,75,20.71,RE,1615093415
281,banjar,-8.19,114.97,86.0,74,20,9.22,ID,1615093415
282,kidal,18.44,1.41,74.95,19,0,9.26,ML,1615093416
283,disna,55.57,28.2,31.44,98,100,18.7,BY,1615093417
284,qui nhon,13.77,109.23,80.22,69,13,5.95,VN,1615093240
285,narsaq,60.92,-46.05,42.8,33,75,18.41,GL,1615093418
286,nara,34.69,135.8,55.0,47,75,5.75,JP,1615093279
287,pangai,-19.8,-174.35,81.55,82,97,8.7,TO,1615093419
288,den helder,52.96,4.76,39.2,65,90,6.91,NL,1615093419
289,shubarkuduk,49.14,56.49,34.83,89,100,21.77,KZ,1615093420
290,porto novo,6.5,2.6,84.2,84,40,8.05,BJ,1615093421
291,mackenzie,55.3,-123.17,26.6,86,75,2.3,CA,1615093421
292,havre-saint-pierre,50.23,-63.6,23.0,86,75,13.8,CA,1615093309
293,villa rica,33.73,-84.92,39.99,63,0,4.0,US,1615093311
294,bayangol,50.7,103.47,29.03,86,1,2.62,RU,1615093423
295,atambua,-9.11,124.89,81.81,74,35,5.59,ID,1615093423
296,talcahuano,-36.72,-73.12,55.4,100,20,5.75,CL,1615093424
297,padang,-0.95,100.35,86.0,58,40,6.91,ID,1615093425
298,vestmanna,62.16,-7.17,39.2,100,75,6.91,FO,1615093426
299,charters towers,-20.1,146.27,88.12,45,18,16.24,AU,1615093427
300,rabo de peixe,37.8,-25.58,60.8,94,75,17.27,PT,1615093427
301,aitape,-3.14,142.35,82.42,78,100,9.69,PG,1615093302
302,ust-kuyga,70.02,135.6,-12.53,87,100,8.28,RU,1615093428
303,alekseyevsk,57.84,108.35,28.92,96,100,16.67,RU,1615093429
304,sitka,57.05,-135.33,42.8,56,90,12.66,US,1615093224
305,pandan,14.05,124.17,81.14,71,88,14.0,PH,1615093430
306,codrington,-38.27,141.97,62.28,68,99,10.16,AU,1615093229
307,kloulklubed,7.04,134.26,86.0,66,75,8.05,PW,1615093191
308,yining,29.04,114.56,54.39,73,96,4.45,CN,1615093432
309,ambatofinandrahana,-20.55,46.8,64.08,91,46,2.35,MG,1615093221
310,caninde,-4.36,-39.31,72.95,85,99,1.61,BR,1615093433
311,tucurui,-3.77,-49.67,74.25,95,100,3.29,BR,1615093433
312,maputo,-25.97,32.59,77.0,88,20,2.3,MZ,1615093434
313,atikokan,48.76,-91.62,23.79,97,82,5.86,CA,1615093249
314,klaksvik,62.23,-6.59,39.2,100,75,6.91,FO,1615093171
315,san quintin,30.48,-115.95,57.38,84,0,15.5,MX,1615093436
316,fortuna,40.6,-124.16,44.6,81,90,8.05,US,1615093436
317,cockburn town,21.46,-71.14,77.47,79,24,8.41,TC,1615093437
318,panzhihua,26.59,101.71,64.0,34,44,0.43,CN,1615093437
319,vendome,47.8,1.07,35.6,86,0,4.61,FR,1615093438
320,pecanha,-18.55,-42.56,65.73,96,48,2.15,BR,1615093439
321,port hardy,50.7,-127.42,44.6,81,90,12.66,CA,1615093252
322,mareeba,-17.0,145.43,88.0,70,40,9.22,AU,1615093440
323,biskamzha,53.45,89.53,27.23,92,70,18.41,RU,1615093440
324,grindavik,63.84,-22.43,41.0,81,75,4.61,IS,1615093252
325,methoni,36.82,21.7,54.0,87,20,2.57,GR,1615093442
326,teknaf,20.86,92.31,83.37,51,21,4.79,BD,1615093443
327,peniche,39.36,-9.38,53.01,90,0,7.14,PT,1615093443
328,bako,5.78,36.57,72.97,48,44,3.6,ET,1615093444
329,port-gentil,-0.72,8.78,81.36,76,100,8.03,GA,1615093444
330,berekum,7.45,-2.58,73.54,90,100,7.09,GH,1615093445
331,marsh harbour,26.54,-77.06,65.5,86,100,19.04,BS,1615093204
332,eravur,7.77,81.61,84.15,76,85,9.31,LK,1615093446
333,kabinda,-6.13,24.48,68.74,93,100,2.06,CD,1615093333
334,marsala,37.8,12.44,57.99,93,20,6.91,IT,1615093447
335,usinsk,65.99,57.53,-16.91,89,84,1.01,RU,1615093448
336,mount gambier,-37.83,140.77,73.4,38,90,6.91,AU,1615093257
337,burnie,-41.07,145.92,64.99,59,100,8.01,AU,1615093449
338,shenjiamen,29.96,122.3,52.07,89,95,10.38,CN,1615093450
339,kungurtug,50.6,97.52,27.99,86,22,0.96,RU,1615093450
340,belmonte,-15.86,-38.88,77.0,83,20,4.61,BR,1615093271
341,labuhan,-6.88,112.21,83.98,72,72,7.78,ID,1615093268
342,southend-on-sea,51.54,0.71,37.0,93,75,3.44,GB,1615093452
343,kieta,-6.22,155.63,80.82,77,99,2.21,PG,1615093286
344,beidao,34.57,105.89,55.74,41,98,13.78,CN,1615093224
345,severodvinsk,64.56,39.83,1.4,85,0,8.95,RU,1615093455
346,rudnichnyy,59.62,52.47,-2.38,92,83,3.06,RU,1615093455
347,saint george,37.1,-113.58,61.0,19,1,6.91,US,1615093455
348,klamath falls,42.22,-121.78,34.0,69,90,5.75,US,1615093401
349,ossora,59.24,163.07,-9.13,78,100,12.68,RU,1615093457
350,santa marta,11.24,-74.2,79.0,81,0,15.95,CO,1615093458
351,kandrian,-6.22,149.55,82.15,75,100,8.81,PG,1615093458
352,pointe michel,15.25,-61.38,77.74,78,2,16.42,DM,1615093459
353,gizo,-8.1,156.84,83.43,72,100,6.49,SB,1615093459
354,ekibastuz,51.67,75.37,26.64,96,100,10.4,KZ,1615093460
355,tazovskiy,67.47,78.7,-13.74,89,96,7.14,RU,1615093285
356,aklavik,68.22,-135.01,-4.0,77,100,11.5,CA,1615093176
357,college,64.86,-147.8,7.0,78,90,2.55,US,1615093462
358,mayor pablo lagerenza,-19.93,-60.77,73.08,57,0,3.2,PY,1615093462
359,vostok,46.49,135.88,14.0,92,77,6.35,RU,1615093463
360,soe,-9.86,124.28,79.48,77,5,4.97,ID,1615093463
361,harper,4.38,-7.72,77.34,88,92,6.42,LR,1615093464
362,boca do acre,-8.75,-67.4,73.08,97,100,1.34,BR,1615093465
363,porto nacional,-10.71,-48.42,71.6,100,20,2.3,BR,1615093465
364,saldanha,-33.01,17.94,55.4,82,12,3.44,ZA,1615093240
365,ndele,8.41,20.65,69.46,23,40,6.13,CF,1615093466
366,sawtell,-30.38,153.1,77.0,65,44,13.8,AU,1615093467
367,leningradskiy,69.38,178.42,-19.61,76,8,4.59,RU,1615093467
368,caetes,-8.77,-36.62,66.9,93,38,8.68,BR,1615093468
369,columbus,39.96,-83.0,32.0,74,1,3.44,US,1615093376
370,mizan teferi,6.98,35.58,71.4,55,45,1.9,ET,1615093469
371,aykhal,66.0,111.5,8.28,92,95,7.9,RU,1615093469
372,ojuelos de jalisco,21.87,-101.58,46.92,66,20,7.27,MX,1615093471
373,antibes,43.56,7.13,48.2,71,75,9.22,FR,1615093471
374,dallas,32.77,-96.78,51.01,46,1,7.74,US,1615092856
375,twentynine palms,34.14,-116.05,62.6,17,1,11.5,US,1615093289
376,nunkini,20.33,-90.18,69.22,88,22,4.5,MX,1615093473
377,lumeje,-11.55,20.78,65.52,75,100,3.42,AO,1615093473
378,malpe,13.35,74.72,86.0,62,20,3.83,IN,1615093474
379,carutapera,-1.2,-46.02,77.09,87,90,5.46,BR,1615093476
380,soure,-0.72,-48.52,78.37,86,95,10.87,BR,1615093476
381,chibuto,-24.69,33.53,72.03,86,1,0.76,MZ,1615093477
382,santa lucia,27.91,-15.54,62.6,72,40,20.71,ES,1615093477
383,sibu,2.3,111.82,82.4,83,40,2.3,MY,1615093478
384,cedartown,34.05,-85.26,41.0,33,1,11.5,US,1615093478
385,zabid,14.2,43.32,80.15,56,0,2.64,YE,1615093479
386,opelousas,30.53,-92.08,51.01,53,1,8.05,US,1615093479
387,vung tau,10.35,107.08,82.53,67,55,18.99,VN,1615093366
388,samarai,-10.62,150.67,81.72,76,72,9.93,PG,1615093196
389,pochutla,15.74,-96.47,77.0,77,1,1.01,MX,1615093481
390,oyama,36.3,139.8,53.01,46,75,17.27,JP,1615093482
391,weligama,5.97,80.42,88.0,55,0,0.43,LK,1615093483
392,khorramshahr,30.44,48.17,53.6,71,0,6.91,IR,1615093484
393,north bend,43.41,-124.22,46.99,71,90,11.5,US,1615093484
394,aguimes,27.91,-15.45,62.6,72,40,20.71,ES,1615093485
395,baishishan,43.58,127.57,27.63,83,3,6.85,CN,1615093486
396,divnomorskoye,44.5,38.14,33.87,78,4,9.73,RU,1615093488
397,bonavista,48.65,-53.11,28.99,93,73,6.91,CA,1615093488
398,sabha,27.04,14.43,58.21,32,0,8.57,LY,1615093489
399,yatsushiro,32.5,130.6,48.2,93,75,4.61,JP,1615093489
400,comodoro rivadavia,-45.87,-67.5,68.0,52,0,5.75,AR,1615093201
401,ussel,45.55,2.32,41.0,42,79,0.34,FR,1615093491
402,mitchell,43.71,-98.03,46.4,71,1,20.71,US,1615093491
403,camana,-16.62,-72.71,72.41,81,21,6.35,PE,1615093492
404,andenes,69.31,16.12,32.0,59,90,23.02,NO,1615093492
405,suez,29.97,32.53,55.78,68,0,13.18,EG,1615093493
406,biak,-0.91,122.88,83.57,69,11,1.3,ID,1615093308
407,mbeya,-8.9,33.45,61.54,93,100,1.34,TZ,1615093494
408,nicoya,10.15,-85.45,75.2,57,0,11.5,CR,1615093231
409,victoria,22.29,114.16,69.01,89,97,3.0,HK,1615093495
410,leshukonskoye,64.9,45.76,-8.93,91,60,4.16,RU,1615093495
411,morondava,-20.28,44.28,77.56,85,35,4.47,MG,1615093496
412,namwala,-15.75,26.44,63.95,91,96,2.46,ZM,1615093497
413,halifax,44.65,-63.57,28.4,69,18,13.8,CA,1615093202
414,nemuro,43.32,145.57,28.4,43,75,11.5,JP,1615093498
415,luanda,-8.84,13.23,75.2,78,75,3.44,AO,1615093449
416,vila velha,-20.33,-40.29,78.01,94,40,3.44,BR,1615093314
417,kaitangata,-46.28,169.85,53.01,70,53,5.01,NZ,1615093201
418,virginia beach,36.85,-75.98,39.99,70,1,4.61,US,1615093248
419,karatau,43.17,70.47,40.95,87,100,3.24,KZ,1615093501
420,brokopondo,4.75,-55.17,76.95,88,87,7.54,SR,1615093501
421,deniliquin,-35.53,144.97,87.01,19,99,8.23,AU,1615093321
422,rosario,-32.95,-60.64,69.01,77,0,4.45,AR,1615093456
423,zlobin,45.29,14.65,37.4,35,0,10.36,HR,1615093504
424,caronport,50.45,-105.82,42.8,65,100,11.5,CA,1615093505
425,inhambane,-23.86,35.38,75.2,88,20,8.14,MZ,1615093329
426,denizli,37.84,29.07,37.4,81,75,4.61,TR,1615093506
427,hanumangarh,29.58,74.32,87.35,23,0,13.11,IN,1615093507
428,praya,14.92,-23.51,68.0,77,75,25.32,CV,1615093508
429,souillac,-20.52,57.52,78.8,94,75,11.5,MU,1615093508
430,rio grande,-32.03,-52.1,61.0,97,3,1.54,BR,1615093509
431,sotuta,20.6,-89.02,66.67,95,38,3.18,MX,1615093510
432,perpignan,42.75,2.75,48.0,87,78,4.61,FR,1615093510
433,dzierzoniow,50.73,16.65,30.99,80,28,8.1,PL,1615093511
434,salinas,36.68,-121.66,51.8,76,1,11.5,US,1615093311
435,gudari,19.35,83.78,100.58,8,12,0.63,IN,1615093512
436,urusha,54.05,122.9,13.24,92,99,4.09,RU,1615093512
437,yerbogachen,61.28,108.01,22.57,97,100,9.82,RU,1615093312
438,dong hoi,17.48,106.6,76.15,86,98,8.66,VN,1615093513
439,paciran,-6.88,112.38,84.31,71,75,8.99,ID,1615093514
440,north platte,41.12,-100.77,53.6,37,1,18.41,US,1615093297
441,nabire,-3.37,135.48,75.22,92,100,1.81,ID,1615093516
442,kavieng,-2.57,150.8,82.67,74,97,3.76,PG,1615093517
443,tessalit,20.2,1.01,73.0,23,29,5.14,ML,1615093517
444,shaoxing,30.01,120.57,44.6,93,75,6.71,CN,1615093518
445,banda aceh,5.56,95.32,85.19,64,100,4.97,ID,1615093276
446,riyadh,24.69,46.72,62.6,22,0,6.91,SA,1615093519
447,coihaique,-45.58,-72.07,47.86,81,10,8.55,CL,1615093290
448,honningsvag,70.98,25.97,28.87,83,31,11.16,NO,1615093390
449,preobrazheniye,42.9,133.91,30.85,82,1,16.51,RU,1615093521
450,sosva,59.18,61.86,3.45,92,0,4.79,RU,1615093521
451,sinnamary,5.38,-52.95,78.48,86,100,15.12,GF,1615093522
452,veraval,20.9,70.37,82.31,55,0,8.19,IN,1615093322
453,talakan,50.32,130.37,14.38,90,100,1.39,RU,1615093523
454,tamiahua,21.27,-97.45,66.67,71,77,5.08,MX,1615093523
455,poum,-20.23,164.02,79.36,69,8,13.51,NC,1615093524
456,qom,34.64,50.88,54.86,37,0,1.83,IR,1615093524
457,metro,-5.11,105.31,73.49,93,100,5.39,ID,1615093525
458,margate,51.38,1.39,39.0,58,25,1.01,GB,1615093526
459,ewa beach,21.32,-158.01,73.4,64,20,8.05,US,1615093527
460,isangel,-19.55,169.27,80.62,70,48,9.93,VU,1615093527
461,goderich,43.75,-81.72,26.6,59,55,11.5,CA,1615093528
462,san cristobal,7.77,-72.22,67.95,86,75,0.89,VE,1615093528
463,hede,33.77,120.25,47.53,54,100,9.4,CN,1615093529
464,nikolayevsk-na-amure,53.14,140.73,7.72,85,0,10.36,RU,1615093530
465,mount isa,-20.73,139.5,100.4,14,0,11.5,AU,1615093314
466,gayny,60.31,54.32,-2.79,92,93,1.77,RU,1615093531
467,agadez,19.75,10.25,65.59,24,57,3.74,NE,1615093418
468,alta floresta,-9.88,-56.09,73.4,100,0,2.3,BR,1615093533
469,ormara,25.21,64.64,76.37,65,15,4.65,PK,1615093534
470,port blair,11.67,92.75,85.53,61,0,10.27,IN,1615093256
471,walvis bay,-22.96,14.51,62.6,82,10,9.22,NA,1615093535
472,canyon lake,29.88,-98.26,51.01,78,96,3.38,US,1615093536
473,seoul,37.57,126.98,51.8,43,40,2.3,KR,1615093266
474,ulladulla,-35.35,150.47,78.01,57,45,14.97,AU,1615093537
475,sechura,-5.56,-80.82,77.95,66,12,7.72,PE,1615093537
476,chippewa falls,44.94,-91.39,30.0,58,1,6.69,US,1615093538
477,jalesar,27.48,78.32,88.09,12,7,8.88,IN,1615093538
478,rio rancho,35.23,-106.66,50.0,29,31,3.0,US,1615093410
479,orel-izumrud,43.46,39.92,39.2,93,20,4.47,RU,1615093540
480,kanigiri,15.4,79.52,88.63,32,0,4.9,IN,1615093540
481,yishui,35.78,118.63,45.59,48,90,4.47,CN,1615093541
482,lundazi,-12.29,33.18,65.61,96,100,6.8,ZM,1615093541
483,zhigansk,66.77,123.37,-12.23,88,100,13.56,RU,1615093542
484,oiba,6.26,-73.3,62.62,91,100,1.92,CO,1615093542
485,katobu,-4.94,122.53,86.04,72,32,1.63,ID,1615093543
486,oistins,13.07,-59.53,77.0,73,40,20.71,BB,1615093544
487,kochinda,21.73,84.35,84.2,37,2,3.44,IN,1615093544
488,conde,-7.26,-34.91,73.4,100,20,6.51,BR,1615093545
489,qatana,33.44,36.08,51.01,80,0,2.3,SY,1615093545
490,yanji,42.91,129.51,33.49,71,0,2.71,CN,1615093546
491,leeton,-34.57,146.4,86.0,21,100,10.36,AU,1615093546
492,tigil,57.8,158.67,-12.51,87,100,7.96,RU,1615093547
493,punta gorda,26.93,-82.05,63.0,88,90,10.36,US,1615093547
494,tumut,-35.3,148.22,84.2,21,40,9.22,AU,1615093548
495,cabinda,-5.55,12.2,76.12,83,100,5.61,AO,1615093268
496,cap malheureux,-19.98,57.61,80.01,84,100,8.99,MU,1615093549
497,isabela,6.71,121.97,87.8,62,20,9.22,PH,1615093550
498,bongandanga,1.5,21.05,68.94,98,89,1.79,CD,1615093550
499,koumac,-20.57,164.28,80.2,61,37,9.69,NC,1615093551
500,takoradi,4.88,-1.76,78.84,87,94,7.23,GH,1615093551
501,guerrero negro,27.98,-114.06,58.35,77,0,15.35,MX,1615093552
502,whitianga,-36.83,175.7,70.0,64,0,13.0,NZ,1615093553
503,lata,40.16,-8.33,51.01,100,75,3.44,PT,1615093553
504,loknya,56.83,30.15,25.03,93,100,16.35,RU,1615093554
505,tamworth,52.63,-1.7,32.0,84,0,3.65,GB,1615093554
506,nioaque,-21.14,-55.83,69.73,85,3,2.04,BR,1615093555
507,coquimbo,-29.95,-71.34,60.8,94,0,4.61,CL,1615093555
508,norman wells,65.28,-126.83,3.2,78,40,11.5,CA,1615093556
509,nishihara,26.18,127.76,71.6,78,90,11.5,JP,1615093556
510,kuusamo,65.97,29.18,15.8,79,75,13.8,FI,1615093557
511,chapais,49.78,-74.85,-0.4,78,90,10.36,CA,1615093364
512,northam,51.03,-4.22,32.0,89,18,1.01,GB,1615093311
513,lodja,-3.48,23.43,69.67,97,100,5.37,CD,1615093559
514,kozhva,65.11,57.05,-6.38,91,99,1.57,RU,1615093559
515,buala,-8.14,159.59,82.58,77,100,4.47,SB,1615093560
516,kavaratti,10.57,72.64,82.51,67,0,8.72,IN,1615093561
517,ahuimanu,21.44,-157.84,73.4,68,75,19.57,US,1615093561
518,loukhi,66.08,33.04,10.58,95,100,12.88,RU,1615093562
519,agirish,61.92,63.02,-3.44,89,0,5.08,RU,1615093563
520,bilibino,68.05,166.44,-16.94,85,100,7.92,RU,1615093563
521,zuwarah,32.93,12.08,58.23,88,52,9.95,LY,1615093564
522,varnavino,57.4,45.09,2.8,94,69,7.14,RU,1615093565
523,petropavlivka,48.46,36.44,26.89,92,0,11.34,UA,1615093565
524,aberdeen,57.14,-2.1,41.0,87,90,5.75,GB,1615093525
525,tuatapere,-46.13,167.68,52.0,77,64,15.01,NZ,1615093566
526,cayenne,4.93,-52.33,79.0,89,90,11.5,GF,1615093567
527,batagay,67.63,134.63,-14.31,84,99,2.48,RU,1615093567
528,atar,20.52,-13.05,60.87,38,0,15.41,MR,1615093568
529,trairi,-3.28,-39.27,76.53,89,38,7.09,BR,1615093568
530,odweyne,9.41,45.06,65.66,28,11,2.59,SO,1615093569
531,alofi,-19.06,-169.92,82.4,78,100,5.75,NU,1615093570
532,mar de espanha,-21.87,-43.01,68.0,98,98,1.01,BR,1615093570
533,vila,42.03,-8.16,46.0,85,6,5.01,PT,1615093291
534,petropavlovsk-kamchatskiy,53.05,158.65,12.2,31,0,22.37,RU,1615093572
535,tecate,32.57,-116.63,53.6,94,75,6.91,MX,1615093573
536,saint anthony,45.02,-93.22,36.0,55,1,3.44,US,1615093573
537,novikovo,51.15,37.89,22.59,93,18,13.8,RU,1615093574
538,winneba,5.35,-0.62,82.4,83,0,11.5,GH,1615093574
539,waitati,-45.75,170.57,54.0,65,54,23.0,NZ,1615093575
540,semey,50.41,80.23,23.0,74,0,6.71,KZ,1615093575
541,campoverde,-8.48,-74.81,73.22,96,75,1.3,PE,1615093576
542,mtwara,-10.27,40.18,75.2,94,75,8.05,TZ,1615093577
543,kattivakkam,13.22,80.32,84.2,65,40,2.3,IN,1615093577
544,santa ana,33.75,-117.87,57.2,77,75,4.61,US,1615093123
545,husavik,66.04,-17.34,33.8,75,20,4.61,IS,1615093579
546,vidim,56.41,103.11,27.54,95,100,14.09,RU,1615093579
547,ostrovnoy,68.05,39.51,2.03,93,100,12.84,RU,1615093580
548,acapulco,16.86,-99.89,74.12,75,0,4.36,MX,1615093581
549,kirakira,-10.45,161.92,83.34,74,100,6.02,SB,1615093582
550,pedro ii,-4.42,-41.46,68.0,97,100,3.22,BR,1615093583
551,hambantota,6.12,81.12,84.2,84,20,8.05,LK,1615093583
552,evensk,61.95,159.23,-13.94,78,0,5.14,RU,1615093337
553,porto-vecchio,41.59,9.28,51.8,76,75,8.05,FR,1615093584
554,kaabong,3.48,34.15,71.87,41,0,6.53,UG,1615093585
555,businga,3.33,20.88,70.32,89,98,1.32,CD,1615093586
556,stromness,58.96,-3.3,41.0,100,92,4.61,GB,1615093586
557,byron bay,-28.65,153.62,78.01,65,40,11.5,AU,1615093587
558,palana,59.12,159.97,-16.98,90,100,5.03,RU,1615093588
559,goranboy,40.61,46.79,53.6,47,0,16.11,AZ,1615093588
560,barysh,53.66,47.11,8.94,95,28,6.55,RU,1615093589
561,guaruja,-23.99,-46.26,75.0,26,100,2.1,BR,1615093294
562,trinidad,-14.83,-64.9,71.02,91,66,2.66,BO,1615093591
563,yuli,9.7,10.27,73.15,20,7,6.49,NG,1615093591
564,toora-khem,52.47,96.11,26.49,92,99,0.92,RU,1615093592
565,nuuk,64.18,-51.72,32.0,80,90,2.3,GL,1615093592
566,kyshtovka,56.56,76.63,11.14,95,82,11.65,RU,1615093593
567,neuquen,-38.95,-68.06,75.2,43,0,2.3,AR,1615093593
568,eagle pass,28.71,-100.5,57.99,55,6,4.0,US,1615093594
569,dudinka,69.41,86.18,-8.75,90,95,6.8,RU,1615093595
570,maniitsoq,65.42,-52.9,27.19,92,100,7.9,GL,1615093596
571,iranshahr,27.2,60.68,62.6,27,0,4.61,IR,1615093596
572,kilimatinde,-5.85,34.95,67.15,94,100,0.76,TZ,1615093597
573,auki,-8.77,160.7,82.63,79,100,4.36,SB,1615093597
574,kanniyakumari,8.08,77.57,85.5,56,4,5.35,IN,1615093598
575,kon tum,14.35,108.0,94.66,22,0,8.93,VN,1615093599
576,puga,21.58,-104.82,58.33,77,42,1.74,MX,1615093599
577,novoagansk,61.94,76.66,4.06,94,53,5.97,RU,1615093600
578,okhotsk,59.38,143.3,-7.28,82,0,11.7,RU,1615093600
579,bethanien,-26.5,17.16,66.67,40,1,1.1,NA,1615093601
580,nanortalik,60.14,-45.24,31.86,98,100,3.94,GL,1615093601
581,paso de carrasco,-34.86,-56.05,62.6,82,0,6.91,UY,1615093602
582,pokhara,28.23,83.98,77.95,18,0,7.27,NP,1615093602
583,kailua,21.4,-157.74,73.4,68,75,19.57,US,1615093603
584,saint-augustin,51.23,-58.65,19.83,97,99,7.34,CA,1615093604
585,bukama,-9.2,25.85,68.4,96,100,2.51,CD,1615093604
586,laguna de perlas,12.34,-83.67,74.88,75,2,8.75,NI,1615093605
587,louis trichardt,-23.04,29.9,65.66,86,10,1.48,ZA,1615093605
588,valdivia,-39.81,-73.25,62.6,100,90,4.61,CL,1615093525
589,rajshahi,24.37,88.6,88.59,20,0,3.67,BD,1615093428
590,alice springs,-23.7,133.88,95.0,10,90,9.22,AU,1615093383
591,eureka,40.8,-124.16,46.0,78,24,7.07,US,1615093447
592,yuncheng,35.02,110.99,52.61,43,6,8.39,CN,1615093608
